[
  { "code": "DT_0063", "name": "가덕도", "lat": 35.024, "lng": 128.81 },
  { "code": "DT_0032", "name": "강화대교", "lat": 37.731, "lng": 126.522 },
  { "code": "DT_0031", "name": "거문도", "lat": 34.028, "lng": 127.308 },
  { "code": "DT_0029", "name": "거제도", "lat": 34.801, "lng": 128.699 },
  { "code": "DT_0026", "name": "고흥발포", "lat": 34.481, "lng": 127.342 },
  { "code": "DT_0049", "name": "광양", "lat": 34.903, "lng": 127.754 },
  { "code": "DT_0042", "name": "교본초", "lat": 34.704, "lng": 128.306 },
  { "code": "DT_0018", "name": "군산", "lat": 35.975, "lng": 126.563 },
  { "code": "DT_0017", "name": "대산", "lat": 37.007, "lng": 126.352 },
  { "code": "DT_0065", "name": "덕적도", "lat": 37.226, "lng": 126.156 },
  { "code": "DT_0057", "name": "동해항", "lat": 37.494, "lng": 129.143 },
  { "code": "DT_0062", "name": "마산", "lat": 35.197, "lng": 128.576 },
  { "code": "DT_0023", "name": "모슬포", "lat": 33.214, "lng": 126.251 },
  { "code": "DT_0007", "name": "목포", "lat": 34.779, "lng": 126.375 },
  { "code": "DT_0006", "name": "묵호", "lat": 37.55, "lng": 129.116 },
  { "code": "DT_0025", "name": "보령", "lat": 36.406, "lng": 126.486 },
  { "code": "DT_0005", "name": "부산", "lat": 35.096, "lng": 129.035 },
  { "code": "DT_0056", "name": "부산항신항", "lat": 35.077, "lng": 128.784 },
  { "code": "DT_0061", "name": "삼천포", "lat": 34.924, "lng": 128.069 },
  { "code": "DT_0094", "name": "서거차도", "lat": 34.251, "lng": 125.915 },
  { "code": "DT_0010", "name": "서귀포", "lat": 33.24, "lng": 126.561 },
  { "code": "DT_0051", "name": "서천마량", "lat": 36.128, "lng": 126.495 },
  { "code": "DT_0022", "name": "성산포", "lat": 33.474, "lng": 126.927 },
  { "code": "DT_0093", "name": "소무의도", "lat": 37.373, "lng": 126.44 },
  { "code": "DT_0012", "name": "속초", "lat": 38.207, "lng": 128.594 },
  { "code": "IE_0061", "name": "신안가거초", "lat": 33.941, "lng": 124.592 },
  { "code": "DT_0008", "name": "안산", "lat": 37.192, "lng": 126.647 },
  { "code": "DT_0067", "name": "안흥", "lat": 36.674, "lng": 126.129 },
  { "code": "DT_0037", "name": "어청도", "lat": 36.117, "lng": 125.984 },
  { "code": "DT_0016", "name": "여수", "lat": 34.747, "lng": 127.765 },
  { "code": "DT_0092", "name": "여호항", "lat": 34.661, "lng": 127.469 },
  { "code": "DT_0003", "name": "영광", "lat": 35.426, "lng": 126.42 },
  { "code": "DT_0044", "name": "영종대교", "lat": 37.545, "lng": 126.584 },
  { "code": "DT_0043", "name": "영흥도", "lat": 37.238, "lng": 126.428 },
  { "code": "IE_0062", "name": "옹진소청초", "lat": 37.423, "lng": 124.738 },
  { "code": "DT_0027", "name": "완도", "lat": 34.315, "lng": 126.759 },
  { "code": "DT_0039", "name": "왕돌초", "lat": 36.719, "lng": 129.732 },
  { "code": "DT_0013", "name": "울릉도", "lat": 37.491, "lng": 130.913 },
  { "code": "DT_0020", "name": "울산", "lat": 35.501, "lng": 129.387 },
  { "code": "DT_0068", "name": "위도", "lat": 35.618, "lng": 126.301 },
  { "code": "IE_0060", "name": "이어도", "lat": 32.122, "lng": 125.182 },
  { "code": "DT_0001", "name": "인천", "lat": 37.451, "lng": 126.592 },
  { "code": "DT_0052", "name": "인천송도", "lat": 37.338, "lng": 126.586 },
  { "code": "DT_0024", "name": "장항", "lat": 36.006, "lng": 126.687 },
  { "code": "DT_0004", "name": "제주", "lat": 33.527, "lng": 126.543 },
  { "code": "DT_0028", "name": "진도", "lat": 34.377, "lng": 126.308 },
  { "code": "DT_0021", "name": "추자도", "lat": 33.961, "lng": 126.3 },
  { "code": "DT_0050", "name": "태안", "lat": 36.913, "lng": 126.238 },
  { "code": "DT_0014", "name": "통영", "lat": 34.827, "lng": 128.434 },
  { "code": "DT_0002", "name": "평택", "lat": 36.966, "lng": 126.822 },
  { "code": "DT_0091", "name": "포항", "lat": 36.051, "lng": 129.376 },
  {
    "code": "DT_0902",
    "name": "포항시청_냉천항만교(수위)",
    "lat": 36.003,
    "lng": 129.413
  },
  { "code": "DT_0066", "name": "향화도", "lat": 35.167, "lng": 126.359 },
  { "code": "DT_0011", "name": "후포", "lat": 36.677, "lng": 129.453 },
  { "code": "DT_0035", "name": "흑산도", "lat": 34.684, "lng": 125.435 }
]
